[
  {
    "name": "Box Aéroport International HB Monastir",
    "phoneNumber": "70 000 000",
    "address": "Aéroport Monastir",
    "latitude": 35.7611759,
    "longitude": 10.7534624
  },
  {
    "name": "Esapce TT Ettadhamen",
    "phoneNumber": "70 660 777",
    "address": "Av Ibn khaldoun Ettadhamen",
    "latitude": 36.8345183,
    "longitude": 10.1176054
  },
  {
    "name": "Espace TT Ben Guerden",
    "phoneNumber": "75 714 845",
    "address": "Rue PTT Ben Guerden 4160",
    "latitude": 33.1389824,
    "longitude": 11.2196304
  },
  {
    "name": "Espace TT (Espace Entreprise) Ariana",
    "phoneNumber": "71 703 750",
    "address": "Rue André Ampère Zone Administrative 2080 Ariana",
    "latitude": 36.8520395,
    "longitude": 10.1949115
  },
  {
    "name": "Espace TT (Espace Entreprise) Sfax",
    "phoneNumber": "74 695 110",
    "address": "Rte de tunis km 2,5 Complexe Sfax Nord 3002 sfax",
    "latitude": 34.7604982,
    "longitude": 10.7622302
  },
  {
    "name": "Espace TT (Espace Entreprise) Sousse",
    "phoneNumber": "73 223 604",
    "address": "AV Leopold Senghor 4000 Sousse",
    "latitude": 35.8561675,
    "longitude": 10.6003002
  },
  {
    "name": "Espace TT (MSA) Cité Ennasr",
    "phoneNumber": "70 833 991",
    "address": "Rue El Ahd El Jadid Residence Erriadh 2001Ennasr 2",
    "latitude": 36.8558949,
    "longitude": 10.1551868
  },
  {
    "name": "Espace TT Ajim",
    "phoneNumber": "75 661 468",
    "address": "Route des bacs Ajim Djerba 4135",
    "latitude": 33.7227142,
    "longitude": 10.7466142
  },
  {
    "name": "Espace TT Aouina",
    "phoneNumber": "70 943 900",
    "address": "Av Bassatine Jardin l'Aouina 2045 Aouina",
    "latitude": 36.8569716,
    "longitude": 10.2653426
  },
  {
    "name": "Espace TT Bardo",
    "phoneNumber": "71 503 672",
    "address": "AV Habib Thameur Bardo 2000",
    "latitude": 36.8092546,
    "longitude": 10.1368212
  },
  {
    "name": "Espace TT Barket Essahel",
    "phoneNumber": "72 227 460",
    "address": "AV Yasser Arafet Centre Slama 8056 Barraket Essahel",
    "latitude": 36.8211174,
    "longitude": 10.188737
  },
  {
    "name": "Espace TT Beit el Hikma",
    "phoneNumber": "77 231 950",
    "address": "Av Beit El Hekma. Kairouan.",
    "latitude": 36.8212849,
    "longitude": 10.189128
  },
  {
    "name": "Espace TT Bennene",
    "phoneNumber": "70 000 000",
    "address": "AV Habib Bourguiba Bennene 5025",
    "latitude": 36.4554371,
    "longitude": 10.7484963
  },
  {
    "name": "Espace TT Bir Lahmar",
    "phoneNumber": "75 848 900",
    "address": "AV Habib Bourguiba Bir Lahmer 3212",
    "latitude": 33.1628917,
    "longitude": 10.4556822
  },
  {
    "name": "Espace TT Bizerte (ex Actel)",
    "phoneNumber": "72 423 800",
    "address": "Rue 1er Mai Bizerte 7000",
    "latitude": 37.2737291,
    "longitude": 9.8737446
  },
  {
    "name": "Espace TT Bizerte (ex PDV)",
    "phoneNumber": "72 423 430",
    "address": "Rue d'Espagne 7000",
    "latitude": 37.2972137,
    "longitude": 9.8676569
  },
  {
    "name": "Espace TT Boussalem",
    "phoneNumber": "78 635 655",
    "address": "146 RUE 20 MARS BOUSALEM 8170",
    "latitude": 36.6045425,
    "longitude": 8.9691697
  },
  {
    "name": "Espace TT Dar Chaabane",
    "phoneNumber": "72 361 111",
    "address": "10 Av Habib Bourguiba Dar Chaabane",
    "latitude": 36.4553036,
    "longitude": 10.7486264
  },
  {
    "name": "Espace TT Djerba",
    "phoneNumber": "75 655 900",
    "address": "Av Habib Bourguiba houmet Essouk Djerba 4180",
    "latitude": 33.8094069,
    "longitude": 10.9914641
  },
  {
    "name": "Espace TT Douz",
    "phoneNumber": "75 475 400",
    "address": "Rue des Martyrs",
    "latitude": 33.453891,
    "longitude": 9.0226152
  },
  {
    "name": "Espace TT El Hamma",
    "phoneNumber": 75330696,
    "address": "Cité Commerciale 6020.El Hamma",
    "latitude": 33.8859338,
    "longitude": 9.7957264
  },
  {
    "name": "Espace TT El Horria",
    "phoneNumber": 74405580,
    "address": "Av Horria. Sfax Jadida 3027",
    "latitude": 36.7374413,
    "longitude": 10.2016445
  },
  {
    "name": "Espace TT El ksar",
    "phoneNumber": 96518418,
    "address": "Route de Gabes Ksar",
    "latitude": 36.816731,
    "longitude": 10.0987811
  },
  {
    "name": "Espace TT Enfidha",
    "phoneNumber": 73250705,
    "address": "Avenue de la République Enfidha 4030 sousse",
    "latitude": 36.1348883,
    "longitude": 10.3795933
  },
  {
    "name": "Espace TT Ezzahra",
    "phoneNumber": 71453815,
    "address": "Rue Ibn Bassem N°4",
    "latitude": 36.7410471,
    "longitude": 10.3025317
  },
  {
    "name": "Espace TT Ezzouhour",
    "phoneNumber": 71228000,
    "address": "Rue Abdellah Ben Moaddeb",
    "latitude": 36.7898882,
    "longitude": 10.1141683
  },
  {
    "name": "Espace TT Gabes",
    "phoneNumber": 75222155,
    "address": "AV Bechir Eljaziri 6001, Gabes",
    "latitude": 33.8745772,
    "longitude": 10.0935431
  },
  {
    "name": "Espace TT Gabes",
    "phoneNumber": 75222155,
    "address": "AV Bechir Eljaziri 6001, Gabes",
    "latitude": 33.8745772,
    "longitude": 10.0935431
  },
  {
    "name": "Espace TT Ghardimaou",
    "phoneNumber": 78665500,
    "address": "51 Rue Hedi Chaker 8160 Ghardimaou",
    "latitude": 36.789744,
    "longitude": 10.1142611
  },
  {
    "name": "Espace TT Grombalia",
    "phoneNumber": 72256666,
    "address": "Rue Hedi Saidi 8030 Grombalia",
    "latitude": 36.5996747,
    "longitude": 10.4961523
  },
  {
    "name": "Espace TT Habib Bourguiba",
    "phoneNumber": 73214290,
    "address": "Av Habib Bourguiba Sousse",
    "latitude": 34.722151,
    "longitude": 10.7185805
  },
  {
    "name": "Espace TT Hached",
    "phoneNumber": 71322100,
    "address": "29 Rue Jamel Abdenasser Tunis",
    "latitude": 36.8210691,
    "longitude": 10.1894727
  },
  {
    "name": "Espace TT Haouaria",
    "phoneNumber": 72297255,
    "address": "Rue 02Mars 1934 , 8045 Haouaria",
    "latitude": 37.0470316,
    "longitude": 11.0123348
  },
  {
    "name": "Espace TT Jbeniana",
    "phoneNumber": 74881891,
    "address": "Av Habib Bourguiba Jebeniana Ville 3080",
    "latitude": 35.030896,
    "longitude": 10.908529
  },
  {
    "name": "Espace TT Jelma",
    "phoneNumber": 76657464,
    "address": "Rue Mongi Slim à coté de la Poste - Jelma",
    "latitude": 36.7946069,
    "longitude": 10.1904998
  },
  {
    "name": "Espace TT Jemmal",
    "phoneNumber": 73484100,
    "address": "Station Des Louages Jammel 5020",
    "latitude": 35.6281414,
    "longitude": 10.7613012
  },
  {
    "name": "Espace TT Kantaoui",
    "phoneNumber": 73346100,
    "address": "Rue Taieb Slimane en face hotel Houria Kantaoui",
    "latitude": 35.8875529,
    "longitude": 10.5954592
  },
  {
    "name": "Espace TT Kasbah",
    "phoneNumber": 71560191,
    "address": "29 Ter Rue Bab Benet Tunis",
    "latitude": 35.8872637,
    "longitude": 10.5967566
  },
  {
    "name": "Espace TT Kebili",
    "phoneNumber": 75494443,
    "address": "Av Habib Bourguiba 4200 Kebili",
    "latitude": 33.7041889,
    "longitude": 8.9680128
  },
  {
    "name": "Espace TT Kef",
    "phoneNumber": 78223236,
    "address": "Av Mongi Slim 7100 Le Kef",
    "latitude": 36.1745759,
    "longitude": 8.706816
  },
  {
    "name": "Espace TT Kerkena",
    "phoneNumber": 74482210,
    "address": "Rte Aguereb Km 2 3060 Mahres",
    "latitude": 37.2971414,
    "longitude": 9.8675358
  },
  {
    "name": "Espace TT Kheireddine Pacha",
    "phoneNumber": 71904666,
    "address": "AV Kheireddine Pacha Montplaisir Tunis",
    "latitude": 36.8212068,
    "longitude": 10.1889195
  },
  {
    "name": "Espace TT Khezama",
    "phoneNumber": 73273995,
    "address": "Route de Tunis GP1 khezema Est Sousse",
    "latitude": 35.8480553,
    "longitude": 10.6099322
  },
  {
    "name": "Espace TT Korba",
    "phoneNumber": 72384960,
    "address": "307 10 Av Habib Bourguiba Korba",
    "latitude": 36.5740604,
    "longitude": 10.8586275
  },
  {
    "name": "Espace TT Ksar Hellal",
    "phoneNumber": 73450700,
    "address": "Av Habib Bourguiba Ksar Hellal 5070",
    "latitude": 35.639537,
    "longitude": 10.8941087
  },
  {
    "name": "Espace TT Ksar Said",
    "phoneNumber": 70304937,
    "address": "Zone Industrielle Ksar Said Douar Hicher 2086",
    "latitude": 36.8167205,
    "longitude": 10.0990316
  },
  {
    "name": "Espace TT La Goulette",
    "phoneNumber": 71735900,
    "address": "6.AV Roosvelt 2060 La Goulette",
    "latitude": 36.8409584,
    "longitude": 10.3200872
  },
  {
    "name": "Espace TT La Marsa",
    "phoneNumber": 71728933,
    "address": "Av. Taieb Mhiri Marsa Ville",
    "latitude": 36.8805099,
    "longitude": 10.3269215
  },
  {
    "name": "Espace TT Mahdia",
    "phoneNumber": 73681333,
    "address": "Rue Kortouba pres Sonede Mahdia 5100",
    "latitude": 35.50689,
    "longitude": 11.0509251
  },
  {
    "name": "Espace TT Mahdia Medina",
    "phoneNumber": 73680855,
    "address": "Av 2 Mars 1934 Mahdia 5100",
    "latitude": 35.5068428,
    "longitude": 11.0510253
  },
  {
    "name": "Espace TT Mahres",
    "phoneNumber": 74692703,
    "address": "Ramla 3070 Kerkennah",
    "latitude": 34.7981467,
    "longitude": 10.7607869
  },
  {
    "name": "Espace TT Martyrs",
    "phoneNumber": 72429008,
    "address": "Av 14 janvier 7000 Bizerte",
    "latitude": 34.7979892,
    "longitude": 10.760758
  },
  {
    "name": "Espace TT Mateur",
    "phoneNumber": 72485203,
    "address": "Avenue Farhat Hached Mateur",
    "latitude": 37.0406154,
    "longitude": 9.6691965
  },
  {
    "name": "Espace TT Medenine",
    "phoneNumber": 75644227,
    "address": "Rue 02 Mai Medenine",
    "latitude": 33.360907,
    "longitude": 10.4727233
  },
  {
    "name": "Espace TT Meknassy",
    "phoneNumber": 76646150,
    "address": "Av Habib Bourguiba - Meknassy",
    "latitude": 34.6056983,
    "longitude": 9.6065676
  },
  {
    "name": "Espace TT Menzel Bourguiba",
    "phoneNumber": 72462992,
    "address": "Av de l'Indépendance 7050 ML Bourguiba",
    "latitude": 36.6817068,
    "longitude": 10.5849319
  },
  {
    "name": "Espace TT Menzel Bouzelfa",
    "phoneNumber": 72252580,
    "address": "Av Habib Bourguiba Face Pharmacie Kobbi près de la Municipalité 8010 M.Bouzelfa",
    "latitude": 36.6523777,
    "longitude": 10.5900291
  },
  {
    "name": "Espace TT Menzel Temime",
    "phoneNumber": 72349349,
    "address": "Av Mongi Slim Menzel Temime 8080",
    "latitude": 36.7801872,
    "longitude": 10.9861635
  },
  {
    "name": "Espace TT Midoun",
    "phoneNumber": 75733766,
    "address": "Av S,B Youssef Midoun Djerba 4116",
    "latitude": 33.8094136,
    "longitude": 10.991364
  },
  {
    "name": "Espace TT Moknine",
    "phoneNumber": 73436250,
    "address": "Av Farhat Hached 5050 Moknine",
    "latitude": 35.630231,
    "longitude": 10.8982179
  },
  {
    "name": "Espace TT Monastir Combattant Suprême",
    "phoneNumber": 73447800,
    "address": "Av Combattant Suprême 5000 Monastir",
    "latitude": 35.7714859,
    "longitude": 10.8244377
  },
  {
    "name": "Espace TT Mornaguia",
    "phoneNumber": 71551340,
    "address": "Av Habib Bourguiba Près de l'UIB Mornaguia 1110",
    "latitude": 36.7570625,
    "longitude": 10.0149826
  },
  {
    "name": "Espace TT Mourouj",
    "phoneNumber": 71473727,
    "address": "Av des Martyrs Mourouj 3",
    "latitude": 36.7205215,
    "longitude": 10.2160414
  },
  {
    "name": "Espace TT Msaken",
    "phoneNumber": 73265800,
    "address": "Av Farhat Hached 4070 Msaken",
    "latitude": 35.7223692,
    "longitude": 10.5722537
  },
  {
    "name": "Espace TT Nabeul",
    "phoneNumber": 72285705,
    "address": "Av Habib Bourguiba 8000 Nabeul",
    "latitude": 36.4557294,
    "longitude": 10.733593
  },
  {
    "name": "Espace TT Nebeur",
    "phoneNumber": 78246281,
    "address": "AvHabib Bourguiba Nebeur 7110",
    "latitude": 36.2950202,
    "longitude": 8.7677819
  },
  {
    "name": "Espace TT Nefta",
    "phoneNumber": 76430015,
    "address": "AV Habib Bourguiba Nefta",
    "latitude": 36.7899682,
    "longitude": 10.114114
  },
  {
    "name": "Espace TT Ouardia",
    "phoneNumber": 71492841,
    "address": "68,AV Bellevue 1009 Ouardia",
    "latitude": 36.766303,
    "longitude": 10.1802911
  },
  {
    "name": "Espace TT Radès",
    "phoneNumber": 71445488,
    "address": "AV H Bourguiba Rades",
    "latitude": 36.7724662,
    "longitude": 10.2732651
  },
  {
    "name": "Espace TT Ras Jebel",
    "phoneNumber": 72455045,
    "address": "Ave Habib Bouguiba 7070 Ras Jebel",
    "latitude": 37.2157136,
    "longitude": 10.1262141
  },
  {
    "name": "Espace TT Remada",
    "phoneNumber": 75867070,
    "address": "Centre Ville Remada en face du Municiplité",
    "latitude": 36.7723581,
    "longitude": 10.2732494
  },
  {
    "name": "Espace TT Sahloul",
    "phoneNumber": 73820267,
    "address": "Av Yasser Arafet Sahloul",
    "latitude": 35.8567407,
    "longitude": 10.6008313
  },
  {
    "name": "Espace TT Sakiet Ezzit",
    "phoneNumber": 74859199,
    "address": "Rte de Tunis Km 7 3021 sfax",
    "latitude": 34.7982617,
    "longitude": 10.760818
  },
  {
    "name": "Espace TT Sbitla",
    "phoneNumber": 77480311,
    "address": "Rue de la République, à coté du PTT Thala 1210",
    "latitude": 34.7982191,
    "longitude": 10.760806
  },
  {
    "name": "Espace TT Sers",
    "phoneNumber": 78262177,
    "address": "Rue El Orbos Sers 7180",
    "latitude": 36.0737177,
    "longitude": 9.023963
  },
  {
    "name": "Espace TT Sfax el Jadida",
    "phoneNumber": 74415355,
    "address": "Av Hedi Nouira. Sfax Jadida 3027",
    "latitude": 34.7526273,
    "longitude": 10.7684312
  },
  {
    "name": "Espace TT Sfax el medina",
    "phoneNumber": 74299523,
    "address": "Av Commandant Bejaoui. Sfax 3000",
    "latitude": 34.7525431,
    "longitude": 10.768401
  },
  {
    "name": "Espace TT Sfax Sud",
    "phoneNumber": 74297123,
    "address": "Rte de Gabes Km 0.5. Sfax 3000",
    "latitude": 34.7603296,
    "longitude": 10.7627159
  },
  {
    "name": "Espace TT Smar",
    "phoneNumber": 75886621,
    "address": "Espace TT Smar Cité Ennozha",
    "latitude": 34.7603296,
    "longitude": 10.7627159
  },
  {
    "name": "Espace TT Souk Lahad",
    "phoneNumber": 75480444,
    "address": "Rte de Tozeur 4236 Souk Lahad",
    "latitude": 36.7898624,
    "longitude": 10.1142374
  },
  {
    "name": "Espace TT Sousse",
    "phoneNumber": 73225000,
    "address": "AV Avicenne Sousse",
    "latitude": 35.8567076,
    "longitude": 10.60095
  },
  {
    "name": "Espace TT Sousse Erriadh",
    "phoneNumber": 73301605,
    "address": "AV Ettaoufik Cité Erriadh",
    "latitude": 35.8568204,
    "longitude": 10.6007421
  },
  {
    "name": "Espace TT Tala",
    "phoneNumber": 77468500,
    "address": "Av des Martyrs en face Espace Touati Sbitla 1250",
    "latitude": 35.8480553,
    "longitude": 10.6099322
  },
  {
    "name": "Espace TT Tejrouine",
    "phoneNumber": 78277777,
    "address": "Av Habib Bourguiba 7150 Tejerouine",
    "latitude": 36.326617,
    "longitude": 9.1350621
  },
  {
    "name": "Espace TT Tozeur ville",
    "phoneNumber": 76463936,
    "address": "Route Nefta Tozeur",
    "latitude": 8.1168716,
    "longitude": 8.1168716
  },
  {
    "name": "Espace TT Zaghouan",
    "phoneNumber": 72680777,
    "address": "AV de l'Indépendance",
    "latitude": 36.4007715,
    "longitude": 10.1439452
  },
  {
    "name": "Espace TT Zeramdine",
    "phoneNumber": 70000000,
    "address": "AV Habib Bourguiba Zéramdine 5040",
    "latitude": 36.4553923,
    "longitude": 10.7481413
  },
  {
    "name": "Espace TT El Mahfar",
    "phoneNumber": 72231777,
    "address": "Av Habib Karma 8000 Nabeul",
    "latitude": 36.8212006,
    "longitude": 10.188957
  },
  {
    "name": "Espace TT(Espace Entreprise) Montplaisir",
    "phoneNumber": 70000000,
    "address": "Espace Entreprise) Montplaisir -Tunis",
    "latitude": 36.8211174,
    "longitude": 10.188737
  },
  {
    "name": "Espace TT(MSA) SOUSSE",
    "phoneNumber": 73300984,
    "address": "Sakiet Sidi Yousef Sousse",
    "latitude": 35.8339969,
    "longitude": 10.617038
  },
  {
    "name": "Espace TT kelibia",
    "phoneNumber": 72274280,
    "address": "Av Habib Bourguiba 8090 Kelibia",
    "latitude": 36.8470899,
    "longitude": 11.0907485
  },
  {
    "name": "Espace TT kelibia",
    "phoneNumber": 72273877,
    "address": "100 Av H B kelibia 8090 kelibia",
    "latitude": 36.8470899,
    "longitude": 11.0907485
  },
  {
    "name": "EspaceTT (MSA) Ain Zaghouan",
    "phoneNumber": 70936244,
    "address": "Rue Osman Bahri 2045 Ain Zaghouan",
    "latitude": 36.4007176,
    "longitude": 10.143979
  },
  {
    "name": "EspaceTT Aouina",
    "phoneNumber": 70000000,
    "address": "Aouina",
    "latitude": 36.8545155,
    "longitude": 10.2541035
  },
  {
    "name": "EspaceTT Ariana",
    "phoneNumber": 71717575,
    "address": "82 Av Habib Bourguiba 2080 Ariana",
    "latitude": 36.8520395,
    "longitude": 10.1949115
  },
  {
    "name": "EspaceTT Beja",
    "phoneNumber": 78455333,
    "address": "Avenue Habib Bourguiba BEJA 9000",
    "latitude": 36.7235915,
    "longitude": 9.1880538
  },
  {
    "name": "EspaceTT Belvedere",
    "phoneNumber": 71793838,
    "address": "Rue asdrubal Lafayette tunis belvédère",
    "latitude": 36.8213229,
    "longitude": 10.1780835
  },
  {
    "name": "EspaceTT Ben Arous",
    "phoneNumber": 71382982,
    "address": "Cité administrative GP1 Ben Arous",
    "latitude": 36.7639355,
    "longitude": 10.2243089
  },
  {
    "name": "EspaceTT Berges du Lac",
    "phoneNumber": 71796555,
    "address": "Rue du Lac Tchad 1053 Berge du Lac",
    "latitude": 36.8389057,
    "longitude": 10.2405832
  },
  {
    "name": "EspaceTT Bir Lahfay",
    "phoneNumber": 76677160,
    "address": "Début Rte de Tunis - Bir Lahfey",
    "latitude": 34.9330362,
    "longitude": 9.1966703
  },
  {
    "name": "EspaceTT Borj Louzir",
    "phoneNumber": 71717575,
    "address": "1 Av Mustpha Mohsen 2073 Borj Louzir",
    "latitude": 36.86459,
    "longitude": 10.200487
  },
  {
    "name": "EspaceTT Bouhcina",
    "phoneNumber": 73330200,
    "address": "Actel Bouhsina Cité Hached 4002 Sousse",
    "latitude": 35.823888,
    "longitude": 10.623272
  },
  {
    "name": "EspaceTT Cité Ennour",
    "phoneNumber": 97541086,
    "address": "Centre Radhwani Cité ennour",
    "latitude": 36.76625,
    "longitude": 10.18019
  },
  {
    "name": "EspaceTT Corniche",
    "phoneNumber": 72419210,
    "address": "Croisement Route Corniche /Av Asia 7000 Bizerte",
    "latitude": 37.297247,
    "longitude": 9.867497
  },
  {
    "name": "EspaceTT Dar Chabane",
    "phoneNumber": 72361111,
    "address": "308 10 av HB dar chabane",
    "latitude": 36.455417,
    "longitude": 10.748329
  },
  {
    "name": "EspaceTT Djerba",
    "phoneNumber": 75655900,
    "address": "Av pres de la poste Houmet Essouk",
    "latitude": 33.876164,
    "longitude": 10.856698
  },
  {
    "name": "EspaceTT El Ghazala",
    "phoneNumber": 71756340,
    "address": "Av Habib Bourguiba 2083 El Ghazela",
    "latitude": 36.890084,
    "longitude": 10.172249
  },
  {
    "name": "EspaceTT El Menzah",
    "phoneNumber": 71235500,
    "address": "Av 10 décembre 1004 El Menzah 4",
    "latitude": 36.84447,
    "longitude": 10.183969
  },
  {
    "name": "EspaceTT El Menzah 6",
    "phoneNumber": 71237103,
    "address": "Rue Tahar Mami 2091 El Menzah 6",
    "latitude": 36.845362,
    "longitude": 10.165937
  },
  {
    "name": "EspaceTT Ennasr II",
    "phoneNumber": 70825111,
    "address": "Av Hédi Nouira rés yassine 2001 Ennasr 2",
    "latitude": 36.861224,
    "longitude": 10.163658
  },
  {
    "name": "EspaceTT Gabes Sud",
    "phoneNumber": 75393077,
    "address": "Av Salaheddine Elayoubi 6011. Gabes",
    "latitude": 33.874516,
    "longitude": 10.093517
  },
  {
    "name": "EspaceTT Gafsa",
    "phoneNumber": 96632000,
    "address": "Rue Farhat Haced 2100 Gafsa",
    "latitude": 34.418735,
    "longitude": 8.786009
  },
  {
    "name": "EspaceTT Ghomrassen",
    "phoneNumber": 75820999,
    "address": "RUE IBN ARFA GHOMRASSEN 3220",
    "latitude": 33.059496,
    "longitude": 10.337774
  },
  {
    "name": "EspaceTT Haffouz",
    "phoneNumber": 77356813,
    "address": "Ave du nouvel aire. Haffouz.",
    "latitude": 35.081492,
    "longitude": 9.867283
  },
  {
    "name": "EspaceTT Jendouba",
    "phoneNumber": 78603730,
    "address": "Avenu Habib Bourguiba 8100 jendouba",
    "latitude": 36.50134,
    "longitude": 8.784802
  },
  {
    "name": "EspaceTT Kairouan",
    "phoneNumber": 77228644,
    "address": "Place de la victoire. Kairouan.",
    "latitude": 35.671123,
    "longitude": 10.10082
  },
  {
    "name": "EspaceTT La Marsa",
    "phoneNumber": 71728933,
    "address": "Av. Taieb Mhiri Marsa Ville",
    "latitude": 36.880508,
    "longitude": 10.326711
  },
  {
    "name": "EspaceTT Le Kram",
    "phoneNumber": 71733799,
    "address": "Rue Farhat Hached Salambo",
    "latitude": 36.840988,
    "longitude": 10.319963
  },
  {
    "name": "EspaceTT Medina",
    "phoneNumber": 72675404,
    "address": "Avenue de l\\'indépendance",
    "latitude": 36.737634,
    "longitude": 10.244736
  },
  {
    "name": "EspaceTT Medjez El Bab",
    "phoneNumber": 78563333,
    "address": "Avenue Habib Bourguiba Medjez Elbab",
    "latitude": 36.799692,
    "longitude": 10.182604
  },
  {
    "name": "EspaceTT Métlaoui",
    "phoneNumber": 97940555,
    "address": "Route de Tozuer appartement Kabech Metlaoui",
    "latitude": 33.920684,
    "longitude": 8.115497
  },
  {
    "name": "EspaceTT Monastir",
    "phoneNumber": 73501403,
    "address": "Boulevard de la terre 5019 Monastir",
    "latitude": 35.771257,
    "longitude": 10.824472
  },
  {
    "name": "EspaceTT Nefza",
    "phoneNumber": 78471842,
    "address": "Av. Habib Bourguiba Route Tabarka Nefza 9010",
    "latitude": 36.975939,
    "longitude": 9.079193
  },
  {
    "name": "EspaceTT Rgueb",
    "phoneNumber": 76640626,
    "address": "AV de l'Indépendance - Regueb",
    "latitude": 34.858678,
    "longitude": 9.788028
  },
  {
    "name": "EspaceTT Sfax el medina",
    "phoneNumber": 74299523,
    "address": "Avenue commandant Bejaoui. Sfax 3000",
    "latitude": 34.739676,
    "longitude": 10.75383
  },
  {
    "name": "EspaceTT Sidi Bouzid",
    "phoneNumber": 76634202,
    "address": "Av Habib Bourguiba - Sidi Bouzid",
    "latitude": 35.036841,
    "longitude": 9.482409
  },
  {
    "name": "EspaceTT Siliana",
    "phoneNumber": 78872290,
    "address": "Avenue des Martyres Siliana 6100",
    "latitude": 36.084708,
    "longitude": 9.366715
  },
  {
    "name": "EspaceTT Tabarka",
    "phoneNumber": 78674440,
    "address": "Rue du peuple Tabarka 8110",
    "latitude": 36.953623,
    "longitude": 8.757584
  },
  {
    "name": "EspaceTT Tala",
    "phoneNumber": 77468500,
    "address": "Ave des Martyrs. face Espace Touati Sbitla 1250",
    "latitude": 37.281607,
    "longitude": 9.857327
  },
  {
    "name": "EspaceTT Tataouine",
    "phoneNumber": 75862067,
    "address": "Avenue Hédi Chaker Tataouine 3200",
    "latitude": 32.92101,
    "longitude": 10.450939
  },
  {
    "name": "EspaceTT Teboursok",
    "phoneNumber": 78465870,
    "address": "114 Avenue de la république Teboursouk 9040",
    "latitude": 36.454088,
    "longitude": 9.250053
  },
  {
    "name": "EspaceTT Tejrouine",
    "phoneNumber": 78277777,
    "address": "Avenue Habib Bourguiba 7150 Tejerouine",
    "latitude": 36.174826,
    "longitude": 8.70687
  },
  {
    "name": "EspaceTT Tunis City",
    "phoneNumber": 70836090,
    "address": "Centre Commercial Tunis City",
    "latitude": 36.899868,
    "longitude": 10.124104
  },
  {
    "name": "TT Store Habib Bourguiba",
    "phoneNumber": 71252526,
    "address": "AV Habib Bourguiba",
    "latitude": 36.846953,
    "longitude": 11.090515
  }
]